
$GNRMC,042809.00,V,,,,,,,081123,,,N*6D


$GNVTG,,,,,,,,,N*2E


$GNGGA,042809.00,,,,,0,00,99.99,,,,,,*7F


$GNGSA,A,1,,,,,,,,,,,,,99.99,99.99,99.99*2E


$GNGSA,A,1,,,,,,,,,,,,,99.99,99.99,99.99*2E


$GPGSV,3,1,12,10,60,268,,12,60,090,,15,21,117,,19,00,041,*72


$GPGSV,3,2,12,21,00,312,,23,49,195,,24,33,057,,25,55,173,*7F


$GPGSV,3,3,12,28,18,258,,32,38,312,,194,50,162,,196,68,190,*78


$GLGSV,2,1,07,69,32,129,,70,74,004,,71,25,326,,73,45,222,*64


$GLGSV,2,2,07,74,02,217,,79,19,033,,80,73,018,*54


$GNGLL,,,,,042809.00,V,N*53


$GNRMC,042810.00,V,,,,,,,081123,,,N*65


$GNVTG,,,,,,,,,N*2E


$GNGGA,042810.00,,,,,0,00,99.99,,,,,,*77


$GNGSA,A,1,,,,,,,,,,,,,99.99,99.99,99.99*2E


$GNGSA,A,1,,,,,,,,,,,,,99.99,99.99,99.99*2E


$GPGSV,3,1,12,10,60,268,,12,60,090,,15,21,117,,19,00,041,*72


$GPGSV,3,2,12,21,00,312,,23,49,195,,24,33,057,,25,55,173,*7F


$GPGSV,3,3,12,28,18,258,,32,38,312,,194,50,162,,196,68,190,*78


$GLGSV,2,1,07,69,32,129,,70,74,004,,71,25,326,,73,45,222,*64


$GLGSV,2,2,07,74,02,217,,79,19,033,,80,73,018,*54


$GNGLL,,,,,042810.00,V,N*5B


$GNRMC,042811.00,V,,,,,,,081123,,,N*64


$GNVTG,,,,,,,,,N*2E


$GNGGA,042811.00,,,,,0,00,99.99,,,,,,*76


$GNGSA,A,1,,,,,,,,,,,,,99.99,99.99,99.99*2E


$GNGSA,A,1,,,,,,,,,,,,,99.99,99.99,99.99*2E


$GPGSV,3,1,12,10,60,268,,12,60,090,,15,21,117,,19,00,041,*72


$GPGSV,3,2,12,21,00,312,,23,49,195,,24,33,057,,25,55,173,*7F


$GPGSV,3,3,12,28,18,258,,32,38,312,,194,50,162,,196,68,190,*78


$GLGSV,2,1,07,69,32,129,,70,74,004,,71,25,326,,73,45,222,*64


$GLGSV,2,2,07,74,02,217,,79,19,033,,80,73,018,*54


$GNGLL,,,,,042811.00,V,N*5A


$GNRMC,042812.00,V,,,,,,,081123,,,N*67


$GNVTG,,,,,,,,,N*2E


$GNGGA,042812.00,,,,,0,00,99.99,,,,,,*75


$GNGSA,A,1,,,,,,,,,,,,,99.99,99.99,99.99*2E


$GNGSA,A,1,,,,,,,,,,,,,99.99,99.99,99.99*2E


$GPGSV,3,1,12,10,60,268,,12,60,090,,15,21,117,,19,00,041,*72


$GPGSV,3,2,12,21,00,312,,23,49,195,,24,33,057,,25,55,173,*7F


$GPGSV,3,3,12,28,18,258,,32,38,312,,194,50,162,,196,68,190,*78


$GLGSV,2,1,07,69,32,129,,70,74,004,,71,25,326,,73,45,222,*64


$GLGSV,2,2,07,74,02,217,,79,19,033,,80,73,018,*54


$GNGLL,,,,,042812.00,V,N*59


$GNRMC,042813.00,V,,,,,,,081123,,,N*66


$GNVTG,,,,,,,,,N*2E


$GNGGA,042813.00,,,,,0,00,99.99,,,,,,*74


$GNGSA,A,1,,,,,,,,,,,,,99.99,99.99,99.99*2E


$GNGSA,A,1,,,,,,,,,,,,,99.99,99.99,99.99*2E


$GPGSV,3,1,12,10,60,268,,12,60,090,,15,21,117,,19,00,041,*72


$GPGSV,3,2,12,21,00,312,,23,49,195,,24,33,057,,25,55,173,*7F


$GPGSV,3,3,12,28,18,258,,32,38,312,,194,50,162,,196,68,190,*78


$GLGSV,2,1,07,69,32,129,,70,74,004,,71,25,326,,73,45,222,*64


$GLGSV,2,2,07,74,02,217,,79,19,033,,80,73,018,*54


$GNGLL,,,,,042813.00,V,N*58


$GNRMC,042814.00,V,,,,,,,081123,,,N*61


$GNVTG,,,,,,,,,N*2E


$GNGGA,042814.00,,,,,0,00,99.99,,,,,,*73


$GNGSA,A,1,,,,,,,,,,,,,99.99,99.99,99.99*2E


$GNGSA,A,1,,,,,,,,,,,,,99.99,99.99,99.99*2E


$GPGSV,3,1,12,10,60,268,,12,60,090,,15,21,117,,19,00,041,*72


$GPGSV,3,2,12,21,00,312,,23,49,195,,24,33,057,,25,55,173,*7F


$GPGSV,3,3,12,28,18,258,,32,38,312,,194,50,162,,196,68,190,*78


$GLGSV,2,1,07,69,32,129,,70,74,004,,71,25,326,,73,45,222,*64


$GLGSV,2,2,07,74,02,217,,79,19,033,,80,73,018,*54


$GNGLL,,,,,042814.00,V,N*5F


$GNRMC,042815.00,V,,,,,,,081123,,,N*60


$GNVTG,,,,,,,,,N*2E


$GNGGA,042815.00,,,,,0,00,99.99,,,,,,*72


$GNGSA,A,1,,,,,,,,,,,,,99.99,99.99,99.99*2E


$GNGSA,A,1,,,,,,,,,,,,,99.99,99.99,99.99*2E


$GPGSV,3,1,12,10,60,268,,12,60,090,,15,21,117,,19,00,041,*72


$GPGSV,3,2,12,21,00,312,,23,49,195,,24,33,057,,25,55,173,*7F


$GPGSV,3,3,12,28,18,258,,32,38,312,,194,50,162,,196,68,190,*78


$GLGSV,2,1,07,69,32,129,,70,74,004,,71,25,326,,73,45,222,*64


$GLGSV,2,2,07,74,02,217,,79,19,033,,80,73,018,*54


$GNGLL,,,,,042815.00,V,N*5E


$GNRMC,042816.00,V,,,,,,,081123,,,N*63


$GNVTG,,,,,,,,,N*2E


$GNGGA,042816.00,,,,,0,00,99.99,,,,,,*71


$GNGSA,A,1,,,,,,,,,,,,,99.99,99.99,99.99*2E


$GNGSA,A,1,,,,,,,,,,,,,99.99,99.99,99.99*2E


$GPGSV,3,1,12,10,60,268,,12,60,090,,15,21,117,,19,00,041,*72


$GPGSV,3,2,12,21,00,312,,23,49,195,,24,33,057,,25,55,173,*7F


$GPGSV,3,3,12,28,18,258,,32,38,312,,194,50,162,,196,68,190,*78


$GLGSV,2,1,07,69,32,129,,70,74,004,,71,25,326,,73,45,222,*64


$GLGSV,2,2,07,74,02,217,,79,19,033,,80,73,018,*54


$GNGLL,,,,,042816.00,V,N*5D


$GNRMC,042817.00,V,,,,,,,081123,,,N*62


$GNVTG,,,,,,,,,N*2E


$GNGGA,042817.00,,,,,0,00,99.99,,,,,,*70


$GNGSA,A,1,,,,,,,,,,,,,99.99,99.99,99.99*2E


$GNGSA,A,1,,,,,,,,,,,,,99.99,99.99,99.99*2E


$GPGSV,3,1,12,10,60,268,,12,60,090,,15,21,117,,19,00,041,*72


$GPGSV,3,2,12,21,00,312,,23,49,195,,24,33,057,,25,55,173,*7F


$GPGSV,3,3,12,28,18,258,,32,38,312,,194,50,162,,196,68,190,*78


$GLGSV,2,1,07,69,32,129,,70,74,004,,71,25,326,,73,45,222,*64


$GLGSV,2,2,07,74,02,217,,79,19,033,,80,73,018,*54


$GNGLL,,,,,042817.00,V,N*5C


$GNRMC,042818.00,V,,,,,,,081123,,,N*6D


$GNVTG,,,,,,,,,N*2E


$GNGGA,042818.00,,,,,0,00,99.99,,,,,,*7F


$GNGSA,A,1,,,,,,,,,,,,,99.99,99.99,99.99*2E


$GNGSA,A,1,,,,,,,,,,,,,99.99,99.99,99.99*2E


$GPGSV,3,1,12,10,60,268,,12,60,090,,15,21,117,,19,00,041,*72


$GPGSV,3,2,12,21,00,312,,23,49,195,,24,33,057,,25,55,173,*7F


$GPGSV,3,3,12,28,18,258,,32,38,312,,194,50,162,,196,68,190,*78


$GLGSV,2,1,07,69,32,129,,70,74,004,,71,25,326,,73,45,222,*64


$GLGSV,2,2,07,74,02,217,,79,19,033,,80,73,018,*54


$GNGLL,,,,,042818.00,V,N*53


$GNRMC,042819.00,V,,,,,,,081123,,,N*6C


$GNVTG,,,,,,,,,N*2E


$GNGGA,042819.00,,,,,0,00,99.99,,,,,,*7E


$GNGSA,A,1,,,,,,,,,,,,,99.99,99.99,99.99*2E


$GNGSA,A,1,,,,,,,,,,,,,99.99,99.99,99.99*2E


$GPGSV,3,1,12,10,60,268,,12,60,090,,15,21,117,,19,00,041,*72


$GPGSV,3,2,12,21,00,312,,23,49,195,,24,33,057,,25,55,173,*7F


$GPGSV,3,3,12,28,18,258,,32,38,312,,194,50,162,,196,68,190,*78


$GLGSV,2,1,07,69,32,129,,70,74,004,,71,25,326,,73,45,222,*64


$GLGSV,2,2,07,74,02,217,,79,19,033,,80,73,018,*54


$GNGLL,,,,,042819.00,V,N*52


$GNRMC,042820.00,V,,,,,,,081123,,,N*66


$GNVTG,,,,,,,,,N*2E


$GNGGA,042820.00,,,,,0,00,99.99,,,,,,*74


$GNGSA,A,1,,,,,,,,,,,,,99.99,99.99,99.99*2E


$GNGSA,A,1,,,,,,,,,,,,,99.99,99.99,99.99*2E


$GPGSV,3,1,12,10,60,268,,12,60,090,,15,21,117,,19,00,041,*72


$GPGSV,3,2,12,21,00,312,,23,49,195,,24,33,057,,25,55,173,*7F


$GPGSV,3,3,12,28,18,258,,32,38,312,,194,50,162,,196,68,190,*78


$GLGSV,2,1,07,69,32,129,,70,74,004,,71,25,326,,73,45,222,*64


$GLGSV,2,2,07,74,02,217,,79,19,033,,80,73,018,*54


$GNGLL,,,,,042820.00,V,N*58


$GNRMC,042821.00,V,,,,,,,081123,,,N*67


$GNVTG,,,,,,,,,N*2E


$GNGGA,042821.00,,,,,0,00,99.99,,,,,,*75


$GNGSA,A,1,,,,,,,,,,,,,99.99,99.99,99.99*2E


$GNGSA,A,1,,,,,,,,,,,,,99.99,99.99,99.99*2E


$GPGSV,3,1,12,10,60,268,,12,60,090,,15,21,117,,19,00,041,*72


$GPGSV,3,2,12,21,00,312,,23,49,195,,24,33,057,,25,55,173,*7F


$GPGSV,3,3,12,28,18,258,,32,38,312,,194,50,162,,196,68,190,*78


$GLGSV,2,1,07,69,32,129,,70,74,004,,71,25,326,,73,45,222,*64


$GLGSV,2,2,07,74,02,217,,79,19,033,,80,73,018,*54


$GNGLL,,,,,042821.00,V,N*59


$GNRMC,042822.00,V,,,,,,,081123,,,N*64


$GNVTG,,,,,,,,,N*2E


$GNGGA,042822.00,,,,,0,00,99.99,,,,,,*76


$GNGSA,A,1,,,,,,,,,,,,,99.99,99.99,99.99*2E


$GNGSA,A,1,,,,,,,,,,,,,99.99,99.99,99.99*2E


$GPGSV,3,1,12,10,60,268,,12,60,090,,15,21,117,,19,00,041,*72


$GPGSV,3,2,12,21,00,312,,23,49,195,,24,33,057,,25,55,173,*7F


$GPGSV,3,3,12,28,18,258,,32,38,312,,194,50,162,,196,68,190,*78


$GLGSV,2,1,07,69,32,129,,70,74,004,,71,25,326,,73,45,222,*64


$GLGSV,2,2,07,74,02,217,,79,19,033,,80,73,018,*54


$GNGLL,,,,,042822.00,V,N*5A


$GNRMC,042823.00,V,,,,,,,081123,,,N*65


$GNVTG,,,,,,,,,N*2E


$GNGGA,042823.00,,,,,0,00,99.99,,,,,,*77


$GNGSA,A,1,,,,,,,,,,,,,99.99,99.99,99.99*2E


$GNGSA,A,1,,,,,,,,,,,,,99.99,99.99,99.99*2E


$GPGSV,3,1,12,10,60,268,,12,60,090,,15,21,117,,19,00,041,*72


$GPGSV,3,2,12,21,00,312,,23,49,195,,24,33,057,,25,55,173,*7F


$GPGSV,3,3,12,28,18,258,,32,38,312,,194,50,162,,196,68,190,*78


$GLGSV,2,1,07,69,32,129,,70,74,004,,71,25,326,,73,45,222,*64


$GLGSV,2,2,07,74,02,217,,79,19,033,,80,73,018,*54


$GNGLL,,,,,042823.00,V,N*5B


$GNRMC,042824.00,V,,,,,,,081123,,,N*62


$GNVTG,,,,,,,,,N*2E


$GNGGA,042824.00,,,,,0,00,99.99,,,,,,*70


$GNGSA,A,1,,,,,,,,,,,,,99.99,99.99,99.99*2E


$GNGSA,A,1,,,,,,,,,,,,,99.99,99.99,99.99*2E


$GPGSV,3,1,12,10,60,268,,12,60,090,,15,21,117,,19,00,041,*72


$GPGSV,3,2,12,21,00,312,,23,49,195,,24,33,057,,25,55,173,*7F


$GPGSV,3,3,12,28,18,258,,32,38,312,,194,50,162,,196,68,190,*78


$GLGSV,2,1,07,69,32,129,,70,74,004,,71,25,326,,73,45,222,*64


$GLGSV,2,2,07,74,02,217,,79,19,033,,80,73,018,*54


$GNGLL,,,,,042824.00,V,N*5C


$GNRMC,042825.00,V,,,,,,,081123,,,N*63


$GNVTG,,,,,,,,,N*2E


$GNGGA,042825.00,,,,,0,00,99.99,,,,,,*71


$GNGSA,A,1,,,,,,,,,,,,,99.99,99.99,99.99*2E


$GNGSA,A,1,,,,,,,,,,,,,99.99,99.99,99.99*2E


$GPGSV,3,1,12,10,60,268,,12,60,090,,15,21,117,,19,00,041,*72


$GPGSV,3,2,12,21,00,312,,23,49,195,,24,33,057,,25,55,173,*7F


$GPGSV,3,3,12,28,18,258,,32,38,312,,194,50,162,,196,68,190,*78


$GLGSV,2,1,07,69,32,129,,70,75,004,,71,25,327,,73,45,222,*64


$GLGSV,2,2,07,74,02,217,,79,19,033,,80,73,018,*54


$GNGLL,,,,,042825.00,V,N*5D


$GNRMC,042826.00,V,,,,,,,081123,,,N*60


$GNVTG,,,,,,,,,N*2E


$GNGGA,042826.00,,,,,0,00,99.99,,,,,,*72


$GNGSA,A,1,,,,,,,,,,,,,99.99,99.99,99.99*2E


$GNGSA,A,1,,,,,,,,,,,,,99.99,99.99,99.99*2E


$GPGSV,3,1,12,10,60,268,,12,60,090,,15,21,117,,19,00,041,*72


$GPGSV,3,2,12,21,00,312,,23,49,195,,24,33,057,,25,55,173,*7F


$GPGSV,3,3,12,28,18,258,,32,38,312,,194,50,162,,196,68,190,*78


$GLGSV,2,1,07,69,32,129,,70,75,004,,71,25,327,,73,46,223,*66


$GLGSV,2,2,07,74,02,217,,79,19,033,,80,73,018,*54


$GNGLL,,,,,042826.00,V,N*5E


$GNRMC,042827.00,V,,,,,,,081123,,,N*61


$GNVTG,,,,,,,,,N*2E


$GNGGA,042827.00,,,,,0,00,99.99,,,,,,*73


$GNGSA,A,1,,,,,,,,,,,,,99.99,99.99,99.99*2E


$GNGSA,A,1,,,,,,,,,,,,,99.99,99.99,99.99*2E


$GPGSV,3,1,12,10,60,268,,12,60,090,,15,21,117,,19,00,041,*72


$GPGSV,3,2,12,21,00,312,,23,49,195,,24,33,057,,25,55,173,*7F


$GPGSV,3,3,12,28,18,258,,32,38,312,,194,50,162,,196,68,190,*78


$GLGSV,2,1,07,69,32,129,,70,75,004,,71,25,327,43,73,46,223,*61


$GLGSV,2,2,07,74,03,217,,79,19,033,34,80,73,018,*52


$GNGLL,,,,,042827.00,V,N*5F


$GNRMC,042828.00,V,,,,,,,081123,,,N*6E


$GNVTG,,,,,,,,,N*2E


$GNGGA,042828.00,,,,,0,03,6.79,,,,,,*47


$GNGSA,A,1,32,,,,,,,,,,,,6.86,6.79,1.00*1E


$GNGSA,A,1,71,79,,,,,,,,,,,6.86,6.79,1.00*17


$GPGSV,3,1,12,10,60,268,,12,60,090,,15,21,117,,19,00,041,*72


$GPGSV,3,2,12,21,00,312,,23,49,195,,24,33,057,,25,55,173,*7F


$GPGSV,3,3,12,28,18,258,,32,38,312,45,194,50,162,,196,68,190,*79


$GLGSV,2,1,07,69,32,129,,70,75,004,,71,25,327,45,73,46,223,*67


$GLGSV,2,2,07,74,03,217,,79,19,033,38,80,73,018,26*5A


$GNGLL,,,,,042828.00,V,N*50


$GNRMC,042829.00,V,,,,,,,081123,,,N*6F


$GNVTG,,,,,,,,,N*2E


$GNGGA,042829.00,,,,,0,04,79.02,,,,,,*75


$GNGSA,A,1,32,24,,,,,,,,,,,99.99,79.02,99.99*25


$GNGSA,A,1,71,79,,,,,,,,,,,99.99,79.02,99.99*2A


$GPGSV,3,1,12,10,60,268,28,12,60,090,,15,21,117,,19,00,041,*78


$GPGSV,3,2,12,21,00,312,,23,49,195,,24,33,057,32,25,55,173,*7E


$GPGSV,3,3,12,28,18,258,,32,38,312,44,194,50,162,,196,68,190,*78


$GLGSV,2,1,07,69,32,129,,70,75,004,,71,25,327,41,73,46,223,*63


$GLGSV,2,2,07,74,03,217,,79,18,033,37,80,73,018,23*51


$GNGLL,,,,,042829.00,V,N*51


$GNRMC,042830.00,V,,,,,,,081123,,,N*67


$GNVTG,,,,,,,,,N*2E


$GNGGA,042830.00,,,,,0,06,3.30,,,,,,*43


$GNGSA,A,1,10,32,24,,,,,,,,,,5.16,3.30,3.96*16


$GNGSA,A,1,80,71,79,,,,,,,,,,5.16,3.30,3.96*10


$GPGSV,3,1,12,10,60,268,28,12,60,090,28,15,21,117,,19,00,041,*72


$GPGSV,3,2,12,21,00,312,,23,49,195,,24,33,057,27,25,55,173,*7A


$GPGSV,3,3,12,28,18,258,,32,38,312,43,194,50,162,,196,68,190,*7F


$GLGSV,2,1,07,69,32,129,,70,75,004,,71,25,327,42,73,46,223,*60


$GLGSV,2,2,07,74,03,217,,79,18,033,37,80,72,018,24*57


$GNGLL,,,,,042830.00,V,N*59


$GNRMC,042831.00,V,,,,,,,081123,,,N*66


$GNVTG,,,,,,,,,N*2E


$GNGGA,042831.00,,,,,0,07,2.99,,,,,,*41


$GNGSA,A,1,10,12,32,24,,,,,,,,,4.92,2.99,3.90*1C


$GNGSA,A,1,80,71,79,,,,,,,,,,4.92,2.99,3.90*19


$GPGSV,3,1,12,10,60,268,27,12,60,090,26,15,21,117,,19,00,041,*73


$GPGSV,3,2,12,21,00,312,,23,49,195,,24,33,057,37,25,55,173,*7B


$GPGSV,3,3,12,28,18,258,,32,38,312,48,194,50,162,,196,68,190,*74


$GLGSV,2,1,07,69,32,129,,70,75,004,,71,25,327,46,73,46,223,*64


$GLGSV,2,2,07,74,03,217,,79,18,033,33,80,72,018,24*53


$GNGLL,,,,,042831.00,V,N*58


$GNRMC,042832.00,V,,,,,,,081123,,,N*65


$GNVTG,,,,,,,,,N*2E


$GNGGA,042832.00,,,,,0,07,2.99,,,,,,*42


$GNGSA,A,1,10,12,32,24,,,,,,,,,4.91,2.99,3.90*1F


$GNGSA,A,1,80,71,79,,,,,,,,,,4.91,2.99,3.90*1A


$GPGSV,3,1,12,10,60,268,19,12,60,090,24,15,21,117,,19,00,041,*7C


$GPGSV,3,2,12,21,00,312,,23,49,195,,24,33,057,37,25,55,173,*7B


$GPGSV,3,3,12,28,18,258,,32,38,312,46,194,50,162,,196,68,190,*7A


$GLGSV,2,1,07,69,32,129,,70,75,004,,71,25,327,47,73,46,223,*65


$GLGSV,2,2,07,74,03,217,,79,18,033,30,80,72,018,30*55


$GNGLL,,,,,042832.00,V,N*5B


$GNRMC,042833.00,V,,,,,,,081123,,,N*64


$GNVTG,,,,,,,,,N*2E


$GNGGA,042833.00,,,,,0,07,2.99,,,,,,*43


$GNGSA,A,1,10,12,32,24,,,,,,,,,4.91,2.99,3.90*1F


$GNGSA,A,1,80,71,79,,,,,,,,,,4.91,2.99,3.90*1A


$GPGSV,3,1,12,10,60,268,30,12,60,090,24,15,21,117,,19,00,041,*77


$GPGSV,3,2,12,21,00,312,,23,49,195,,24,33,057,37,25,55,173,*7B


$GPGSV,3,3,12,28,18,258,,32,38,312,48,194,50,162,18,196,68,190,*7D


$GLGSV,2,1,07,69,32,129,,70,75,004,,71,25,327,48,73,46,223,*6A


$GLGSV,2,2,07,74,03,217,,79,18,033,38,80,72,018,31*5C


$GNGLL,,,,,042833.00,V,N*5A


$GNRMC,042834.00,A,3612.98717,N,13614.26123,E,2.400,,081123,,,A*6B


$GNVTG,,T,,M,2.400,N,4.444,K,A*3B


$GNGGA,042834.00,3612.98717,N,13614.26123,E,1,07,2.99,-2.2,M,34.3,M,,*64


$GNGSA,A,3,10,12,32,24,,,,,,,,,4.91,2.99,3.90*1D


$GNGSA,A,3,80,71,79,,,,,,,,,,4.91,2.99,3.90*18


$GPGSV,3,1,12,10,60,268,31,12,60,090,25,15,21,117,,19,00,041,*77


$GPGSV,3,2,12,21,00,312,,23,49,195,,24,33,057,30,25,55,173,*7C


$GPGSV,3,3,12,28,18,258,,32,38,312,48,194,50,162,16,196,68,190,*73


$GLGSV,2,1,07,69,32,129,,70,75,004,,71,25,327,44,73,46,223,*66


$GLGSV,2,2,07,74,03,217,,79,18,033,40,80,72,018,30*52


$GNGLL,3612.98717,N,13614.26123,E,042834.00,A,A*7D


$GNRMC,042835.00,A,3612.98887,N,13614.26294,E,2.337,,081123,,,A*60


$GNVTG,,T,,M,2.337,N,4.328,K,A*35


$GNGGA,042835.00,3612.98887,N,13614.26294,E,1,07,2.99,4.1,M,34.3,M,,*44


$GNGSA,A,3,10,12,32,24,,,,,,,,,4.91,2.99,3.89*15


$GNGSA,A,3,80,71,79,,,,,,,,,,4.91,2.99,3.89*10


$GPGSV,3,1,12,10,60,268,31,12,60,090,25,15,21,117,,19,00,041,*77


$GPGSV,3,2,12,21,00,312,,23,49,195,,24,33,057,33,25,55,173,*7F


$GPGSV,3,3,12,28,18,258,,32,38,312,47,194,50,162,13,196,68,190,18*70


$GLGSV,2,1,07,69,32,129,,70,75,004,,71,25,327,42,73,46,223,*60


$GLGSV,2,2,07,74,03,217,,79,18,033,31,80,72,018,32*56


$GNGLL,3612.98887,N,13614.26294,E,042835.00,A,A*75


$GNRMC,042836.00,A,3612.99041,N,13614.26407,E,2.226,,081123,,,A*6D


$GNVTG,,T,,M,2.226,N,4.123,K,A*3D


$GNGGA,042836.00,3612.99041,N,13614.26407,E,1,07,2.99,8.3,M,34.3,M,,*46


$GNGSA,A,3,10,12,32,24,,,,,,,,,4.91,2.99,3.89*15


$GNGSA,A,3,80,71,79,,,,,,,,,,4.91,2.99,3.89*10


$GPGSV,3,1,12,10,60,268,30,12,60,090,26,15,21,117,,19,00,041,*75


$GPGSV,3,2,12,21,00,312,,23,49,195,,24,33,057,33,25,55,173,08*77


$GPGSV,3,3,12,28,18,258,,32,38,312,46,194,50,162,11,196,68,190,16*7D


$GLGSV,2,1,07,69,32,129,,70,75,004,,71,25,327,42,73,46,223,*60


$GLGSV,2,2,07,74,03,217,,79,18,033,35,80,72,018,26*57


$GNGLL,3612.99041,N,13614.26407,E,042836.00,A,A*79


$GNRMC,042837.00,A,3612.99110,N,13614.26473,E,2.001,,081123,,,A*6D


$GNVTG,,T,,M,2.001,N,3.706,K,A*3C


$GNGGA,042837.00,3612.99110,N,13614.26473,E,1,07,2.99,10.2,M,34.3,M,,*79


$GNGSA,A,3,10,12,32,24,,,,,,,,,4.90,2.99,3.89*14


$GNGSA,A,3,80,71,79,,,,,,,,,,4.90,2.99,3.89*11


$GPGSV,3,1,12,10,60,268,28,12,60,090,26,15,21,117,,19,00,041,*7C


$GPGSV,3,2,12,21,00,312,,23,49,195,,24,33,057,32,25,55,173,11*7E


$GPGSV,3,3,12,28,18,258,,32,38,312,44,194,50,162,11,196,68,190,*78


$GLGSV,2,1,07,69,32,129,,70,75,004,,71,25,327,40,73,46,223,*62


$GLGSV,2,2,07,74,03,217,,79,18,033,32,80,72,018,25*53


$GNGLL,3612.99110,N,13614.26473,E,042837.00,A,A*7E


$GNRMC,042838.00,A,3612.99163,N,13614.26565,E,2.442,57.24,081123,,,A*49


$GNVTG,57.24,T,,M,2.442,N,4.523,K,A*17


$GNGGA,042838.00,3612.99163,N,13614.26565,E,1,07,2.99,12.1,M,34.3,M,,*75


$GNGSA,A,3,10,12,32,24,,,,,,,,,4.90,2.99,3.89*14


$GNGSA,A,3,80,71,79,,,,,,,,,,4.90,2.99,3.89*11


$GPGSV,3,1,12,10,60,268,29,12,60,090,25,15,21,117,,19,00,041,*7E


$GPGSV,3,2,12,21,00,312,,23,49,195,,24,33,057,31,25,55,173,14*78


$GPGSV,3,3,12,28,18,258,,32,38,312,47,194,50,162,09,196,68,190,*72


$GLGSV,2,1,07,69,32,129,,70,75,004,,71,25,327,46,73,46,223,*64


$GLGSV,2,2,07,74,03,217,,79,18,033,37,80,72,018,22*51


$GNGLL,3612.99163,N,13614.26565,E,042838.00,A,A*73


$GNRMC,042839.00,A,3612.99258,N,13614.26665,E,2.460,74.77,081123,,,A*47


$GNVTG,74.77,T,,M,2.460,N,4.556,K,A*12


$GNGGA,042839.00,3612.99258,N,13614.26665,E,1,07,2.98,15.0,M,34.3,M,,*7B


$GNGSA,A,3,10,12,32,24,,,,,,,,,4.90,2.98,3.89*15


$GNGSA,A,3,80,71,79,,,,,,,,,,4.90,2.98,3.89*10


$GPGSV,3,1,12,10,60,268,29,12,60,090,23,15,21,117,,19,00,041,*78


$GPGSV,3,2,12,21,00,312,,23,49,195,,24,33,057,37,25,55,173,15*7F


$GPGSV,3,3,12,28,18,258,,32,38,312,50,194,50,162,08,196,68,190,*75


$GLGSV,2,1,07,69,32,129,,70,75,004,,71,25,327,46,73,46,223,*64


$GLGSV,2,2,07,74,03,217,,79,18,033,42,80,72,018,30*50


$GNGLL,3612.99258,N,13614.26665,E,042839.00,A,A*7A


$GNRMC,042840.00,A,3612.99555,N,13614.26795,E,2.530,86.14,081123,,,A*41


$GNVTG,86.14,T,,M,2.530,N,4.685,K,A*13


$GNGGA,042840.00,3612.99555,N,13614.26795,E,1,08,1.38,21.8,M,34.3,M,,*78


$GNGSA,A,3,10,12,32,24,194,,,,,,,,2.74,1.38,2.37*28


$GNGSA,A,3,80,71,79,,,,,,,,,,2.74,1.38,2.37*11


$GPGSV,3,1,12,10,60,268,27,12,60,090,22,15,21,117,,19,00,041,*77


$GPGSV,3,2,12,21,00,312,,23,49,195,,24,33,057,36,25,55,173,20*78


$GPGSV,3,3,12,28,18,258,,32,38,312,50,194,50,162,12,196,68,190,*7E


$GLGSV,2,1,07,69,32,129,,70,75,004,,71,25,327,49,73,46,223,*6B


$GLGSV,2,2,07,74,03,217,,79,18,033,34,80,72,018,30*51


$GNGLL,3612.99555,N,13614.26795,E,042840.00,A,A*70


$GNRMC,042841.00,A,3612.99784,N,13614.26913,E,2.629,87.12,081123,,,A*42


$GNVTG,87.12,T,,M,2.629,N,4.869,K,A*13


$GNGGA,042841.00,3612.99784,N,13614.26913,E,1,08,1.38,27.3,M,34.3,M,,*7A


$GNGSA,A,3,10,12,32,24,194,,,,,,,,2.74,1.38,2.37*28


$GNGSA,A,3,80,71,79,,,,,,,,,,2.74,1.38,2.37*11


$GPGSV,3,1,12,10,60,268,31,12,60,090,28,15,21,117,20,19,00,041,*78


$GPGSV,3,2,12,21,00,312,,23,49,195,,24,33,057,38,25,55,173,19*7C


$GPGSV,3,3,12,28,18,258,,32,38,312,51,194,50,162,12,196,68,190,*7F


$GLGSV,2,1,07,69,32,129,,70,75,004,,71,25,327,47,73,46,223,18*6C


$GLGSV,2,2,07,74,03,217,,79,18,033,33,80,72,018,31*57


$GNGLL,3612.99784,N,13614.26913,E,042841.00,A,A*7F


$GNRMC,042842.00,A,3613.00058,N,13614.27022,E,2.404,86.41,081123,,,A*46


$GNVTG,86.41,T,,M,2.404,N,4.453,K,A*1C


$GNGGA,042842.00,3613.00058,N,13614.27022,E,1,10,1.07,33.7,M,34.3,M,,*70


$GNGSA,A,3,10,12,25,32,24,194,,,,,,,2.21,1.07,1.93*2E


$GNGSA,A,3,80,71,69,79,,,,,,,,,2.21,1.07,1.93*1F


$GPGSV,3,1,12,10,60,268,32,12,60,090,27,15,21,117,20,19,00,041,*74


$GPGSV,3,2,12,21,00,312,,23,49,195,,24,33,057,33,25,55,173,33*7F


$GPGSV,3,3,12,28,18,258,,32,38,312,49,194,50,162,26,196,68,190,*71


$GLGSV,2,1,07,69,32,129,28,70,75,004,,71,25,327,46,73,46,223,20*6C


$GLGSV,2,2,07,74,03,217,,79,18,033,38,80,72,018,31*5C


$GNGLL,3613.00058,N,13614.27022,E,042842.00,A,A*71


$GNRMC,042843.00,A,3613.00075,N,13614.27105,E,1.884,87.75,081123,,,A*4D


$GNVTG,87.75,T,,M,1.884,N,3.489,K,A*1D


$GNGGA,042843.00,3613.00075,N,13614.27105,E,1,10,1.07,34.4,M,34.3,M,,*7E


$GNGSA,A,3,10,12,25,32,24,194,,,,,,,2.21,1.07,1.93*2E


$GNGSA,A,3,80,71,69,79,,,,,,,,,2.21,1.07,1.93*1F


$GPGSV,3,1,12,10,60,268,27,12,60,090,32,15,21,117,36,19,00,041,*73


$GPGSV,3,2,12,21,00,312,,23,49,195,,24,33,057,36,25,55,173,28*70


$GPGSV,3,3,12,28,18,258,,32,38,312,45,194,50,162,20,196,68,190,25*7C


$GLGSV,2,1,07,69,32,129,33,70,75,004,,71,25,327,45,73,46,223,19*6F


$GLGSV,2,2,07,74,03,217,,79,18,033,43,80,72,018,33*52


$GNGLL,3613.00075,N,13614.27105,E,042843.00,A,A*7B


$GNRMC,042844.00,A,3612.99674,N,13614.27141,E,1.518,122.14,081123,,,A*7D


$GNVTG,122.14,T,,M,1.518,N,2.812,K,A*23


$GNGGA,042844.00,3612.99674,N,13614.27141,E,1,10,1.07,25.5,M,34.3,M,,*7E


$GNGSA,A,3,10,12,25,32,24,194,,,,,,,2.21,1.07,1.93*2E


$GNGSA,A,3,80,71,69,79,,,,,,,,,2.21,1.07,1.93*1F


$GPGSV,3,1,12,10,60,268,24,12,60,090,35,15,21,117,33,19,00,041,*72


$GPGSV,3,2,12,21,00,312,,23,49,195,25,24,33,057,41,25,55,173,26*79


$GPGSV,3,3,12,28,18,258,,32,38,312,37,194,50,162,22,196,68,190,23*7D


$GLGSV,2,1,07,69,32,129,41,70,75,004,,71,25,327,39,73,46,223,20*6B


$GLGSV,2,2,07,74,03,217,,79,18,033,43,80,72,018,36*57


$GNGLL,3612.99674,N,13614.27141,E,042844.00,A,A*7A


$GNRMC,042845.00,A,3612.99584,N,13614.27180,E,0.514,,081123,,,A*6A


$GNVTG,,T,,M,0.514,N,0.952,K,A*33


$GNGGA,042845.00,3612.99584,N,13614.27180,E,1,12,0.98,23.9,M,34.3,M,,*71


$GNGSA,A,3,10,12,25,23,32,24,196,194,,,,,2.07,0.98,1.83*13


$GNGSA,A,3,80,71,69,79,,,,,,,,,2.07,0.98,1.83*1D


$GPGSV,3,1,12,10,60,268,23,12,60,090,39,15,21,117,38,19,00,041,*72


$GPGSV,3,2,12,21,00,312,,23,49,195,24,24,33,057,41,25,55,173,23*7D


$GPGSV,3,3,12,28,18,258,,32,38,312,23,194,50,162,22,196,68,190,23*78


$GLGSV,2,1,07,69,32,129,36,70,75,004,,71,25,327,36,73,46,223,21*65


$GLGSV,2,2,07,74,03,217,,79,18,033,36,80,72,018,30*53


$GNGLL,3612.99584,N,13614.27180,E,042845.00,A,A*7A


$GNRMC,042846.00,A,3612.99443,N,13614.27168,E,1.422,152.43,081123,,,A*7F


$GNVTG,152.43,T,,M,1.422,N,2.634,K,A*24


$GNGGA,042846.00,3612.99443,N,13614.27168,E,1,12,1.10,19.5,M,34.3,M,,*7A


$GNGSA,A,3,10,12,25,23,32,24,196,194,,,,,2.20,1.10,1.90*15


$GNGSA,A,3,80,71,69,79,,,,,,,,,2.20,1.10,1.90*1B


$GPGSV,3,1,12,10,60,268,21,12,60,090,43,15,21,117,37,19,00,041,*72


$GPGSV,3,2,12,21,00,312,,23,49,195,24,24,33,057,35,25,55,173,34*78


$GPGSV,3,3,12,28,18,258,25,32,38,312,22,194,50,162,29,196,68,190,23*75


$GLGSV,2,1,07,69,32,129,44,70,75,004,,71,25,327,27,73,46,223,19*6B


$GLGSV,2,2,07,74,03,217,,79,18,033,34,80,72,018,36*57


$GNGLL,3612.99443,N,13614.27168,E,042846.00,A,A*75


$GNRMC,042847.00,A,3612.99359,N,13614.27186,E,1.203,172.19,081123,,,A*7A


$GNVTG,172.19,T,,M,1.203,N,2.228,K,A*25


$GNGGA,042847.00,3612.99359,N,13614.27186,E,1,12,1.01,18.1,M,34.3,M,,*72


$GNGSA,A,3,10,12,25,23,32,24,196,194,,,,,2.12,1.01,1.86*13


$GNGSA,A,3,80,71,69,79,,,,,,,,,2.12,1.01,1.86*1D


$GPGSV,3,1,12,10,60,268,22,12,60,090,39,15,21,117,40,19,00,041,*7C


$GPGSV,3,2,12,21,00,312,,23,49,195,23,24,33,057,43,25,55,173,35*7F


$GPGSV,3,3,12,28,18,258,23,32,38,312,23,194,50,162,28,196,68,190,33*72


$GLGSV,2,1,07,69,32,129,42,70,75,004,,71,25,327,28,73,46,223,18*63


$GLGSV,2,2,07,74,03,217,,79,18,033,29,80,72,018,30*5D


$GNGLL,3612.99359,N,13614.27186,E,042847.00,A,A*78


$GNRMC,042848.00,A,3612.99225,N,13614.27119,E,1.730,268.52,081123,,,A*7B


$GNVTG,268.52,T,,M,1.730,N,3.204,K,A*28


$GNGGA,042848.00,3612.99225,N,13614.27119,E,1,12,1.12,15.0,M,34.3,M,,*7F


$GNGSA,A,3,10,12,25,23,32,24,196,194,,,,,2.17,1.12,1.86*14


$GNGSA,A,3,80,71,69,79,,,,,,,,,2.17,1.12,1.86*1A


$GPGSV,3,1,12,10,60,268,22,12,60,090,33,15,21,117,35,19,00,041,*74


$GPGSV,3,2,12,21,00,312,,23,49,195,21,24,33,057,41,25,55,173,35*7F


$GPGSV,3,3,12,28,18,258,21,32,38,312,22,194,50,162,44,196,68,190,22*7B


$GLGSV,2,1,07,69,32,129,46,70,75,004,,71,25,327,26,73,46,223,18*69


$GLGSV,2,2,07,74,03,217,,79,18,033,33,80,72,018,28*5F


$GNGLL,3612.99225,N,13614.27119,E,042848.00,A,A*7B


$GNRMC,042849.00,A,3612.99220,N,13614.27098,E,0.643,,081123,,,A*66


$GNVTG,,T,,M,0.643,N,1.192,K,A*37


$GNGGA,042849.00,3612.99220,N,13614.27098,E,1,12,0.98,14.2,M,34.3,M,,*73


$GNGSA,A,3,10,12,25,23,32,24,196,194,,,,,2.07,0.98,1.83*13


$GNGSA,A,3,80,71,69,79,,,,,,,,,2.07,0.98,1.83*1D


$GPGSV,3,1,12,10,60,268,21,12,60,089,22,15,21,117,38,19,00,041,*72


$GPGSV,3,2,12,21,00,312,,23,49,195,21,24,33,057,35,25,55,173,34*7D


$GPGSV,3,3,12,28,18,258,19,32,38,312,20,194,50,162,21,196,68,190,23*70


$GLGSV,2,1,07,69,32,129,33,70,75,004,,71,25,327,24,73,46,223,16*67


$GLGSV,2,2,07,74,03,217,,79,18,033,19,80,72,018,25*5A


$GNGLL,3612.99220,N,13614.27098,E,042849.00,A,A*77


$GNRMC,042850.00,A,3612.99204,N,13614.27084,E,0.955,,081123,,,A*6D


$GNVTG,,T,,M,0.955,N,1.769,K,A*3D


$GNGGA,042850.00,3612.99204,N,13614.27084,E,1,12,0.98,12.8,M,34.3,M,,*7C


$GNGSA,A,3,10,12,25,23,32,24,196,194,,,,,2.07,0.98,1.83*13


$GNGSA,A,3,80,71,69,79,,,,,,,,,2.07,0.98,1.83*1D


$GPGSV,3,1,12,10,60,268,19,12,60,089,22,15,21,117,34,19,00,041,*75


$GPGSV,3,2,12,21,00,312,,23,49,195,22,24,33,057,27,25,55,173,29*71


$GPGSV,3,3,12,28,18,258,18,32,38,312,19,194,50,162,26,196,68,190,22*7D


$GLGSV,2,1,07,69,32,129,35,70,75,004,,71,25,327,21,73,46,223,18*6A


$GLGSV,2,2,07,74,03,217,,79,18,033,26,80,72,018,23*50


$GNGLL,3612.99204,N,13614.27084,E,042850.00,A,A*74


$GNRMC,042851.00,A,3612.99205,N,13614.27109,E,0.512,,081123,,,A*66


$GNVTG,,T,,M,0.512,N,0.949,K,A*3F


$GNGGA,042851.00,3612.99205,N,13614.27109,E,1,12,0.98,12.2,M,34.3,M,,*72


$GNGSA,A,3,10,12,25,23,32,24,196,194,,,,,2.07,0.98,1.83*13


$GNGSA,A,3,80,71,69,79,,,,,,,,,2.07,0.98,1.83*1D


$GPGSV,3,1,12,10,60,268,17,12,60,089,23,15,21,117,23,19,00,041,*7C


$GPGSV,3,2,12,21,00,312,,23,49,195,22,24,33,057,25,25,55,173,22*78


$GPGSV,3,3,12,28,18,258,17,32,38,312,29,194,50,162,25,196,68,190,19*7A


$GLGSV,2,1,07,69,32,129,29,70,75,004,,71,25,327,29,73,46,223,17*60


$GLGSV,2,2,07,74,03,217,,79,18,033,23,80,72,018,21*57


$GNGLL,3612.99205,N,13614.27109,E,042851.00,A,A*70


$GNRMC,042852.00,A,3612.99215,N,13614.27130,E,0.626,,081123,,,A*6A


$GNVTG,,T,,M,0.626,N,1.159,K,A*33


$GNGGA,042852.00,3612.99215,N,13614.27130,E,1,12,0.98,12.0,M,34.3,M,,*78


$GNGSA,A,3,10,12,25,23,32,24,196,194,,,,,2.07,0.98,1.83*13


$GNGSA,A,3,80,71,69,79,,,,,,,,,2.07,0.98,1.83*1D


$GPGSV,3,1,12,10,60,268,17,12,60,089,22,15,21,117,26,19,00,041,*78


$GPGSV,3,2,12,21,00,312,,23,49,195,20,24,33,057,34,25,55,173,22*7A


$GPGSV,3,3,12,28,18,258,16,32,38,312,38,194,50,162,24,196,68,190,18*7B


$GLGSV,2,1,07,69,32,129,19,70,75,004,,71,25,327,39,73,46,223,16*63


$GLGSV,2,2,07,74,03,217,,79,18,033,35,80,72,018,21*50


$GNGLL,3612.99215,N,13614.27130,E,042852.00,A,A*78


$GNRMC,042853.00,A,3612.99229,N,13614.27137,E,0.364,,081123,,,A*60


$GNVTG,,T,,M,0.364,N,0.674,K,A*39


$GNGGA,042853.00,3612.99229,N,13614.27137,E,1,12,0.98,12.4,M,34.3,M,,*75


$GNGSA,A,3,10,12,25,23,32,24,196,194,,,,,2.07,0.98,1.83*13


$GNGSA,A,3,80,71,69,79,,,,,,,,,2.07,0.98,1.83*1D


$GPGSV,3,1,12,10,60,268,17,12,60,089,30,15,21,117,32,19,00,041,*7E


$GPGSV,3,2,12,21,00,312,,23,49,195,19,24,33,057,35,25,55,173,20*73


$GPGSV,3,3,12,28,18,258,15,32,38,312,45,194,50,162,23,196,68,190,16*7B


$GLGSV,2,1,07,69,32,129,20,70,75,004,,71,25,327,42,73,46,223,19*6A


$GLGSV,2,2,07,74,03,217,,79,18,033,42,80,72,018,29*58


$GNGLL,3612.99229,N,13614.27137,E,042853.00,A,A*71


$GNRMC,042854.00,A,3612.99283,N,13614.27195,E,1.775,21.60,081123,,,A*41


$GNVTG,21.60,T,,M,1.775,N,3.288,K,A*13


$GNGGA,042854.00,3612.99283,N,13614.27195,E,1,11,1.13,14.8,M,34.3,M,,*71


$GNGSA,A,3,10,12,25,32,24,196,194,,,,,,2.22,1.13,1.92*17


$GNGSA,A,3,80,71,69,79,,,,,,,,,2.22,1.13,1.92*18


$GPGSV,3,1,12,10,60,268,33,12,60,089,43,15,21,117,31,19,00,041,*7F


$GPGSV,3,2,12,21,00,312,,23,49,195,,24,33,057,38,25,55,173,19*7C


$GPGSV,3,3,12,28,18,258,17,32,38,312,50,194,50,162,22,196,68,190,16*7C


$GLGSV,2,1,07,69,32,129,43,70,75,004,,71,25,327,44,73,46,223,19*69


$GLGSV,2,2,07,74,03,217,,79,18,033,33,80,72,018,39*5F


$GNGLL,3612.99283,N,13614.27195,E,042854.00,A,A*7E


$GNRMC,042855.00,A,3612.99307,N,13614.27188,E,1.567,11.63,081123,,,A*40


$GNVTG,11.63,T,,M,1.567,N,2.901,K,A*19


$GNGGA,042855.00,3612.99307,N,13614.27188,E,1,11,1.06,15.7,M,34.3,M,,*7B


$GNGSA,A,3,10,12,25,32,24,196,194,,,,,,2.16,1.06,1.89*1E


$GNGSA,A,3,80,71,69,79,,,,,,,,,2.16,1.06,1.89*11


$GPGSV,3,1,12,10,60,268,40,12,60,089,43,15,21,117,39,19,00,041,*73


$GPGSV,3,2,12,21,00,312,,23,49,195,,24,33,057,37,25,55,173,24*7D


$GPGSV,3,3,12,28,18,258,18,32,38,312,40,194,50,162,31,196,68,190,18*7E


$GLGSV,2,1,07,69,32,129,45,70,75,004,,71,25,327,38,73,46,223,22*6C


$GLGSV,2,2,07,74,03,217,,79,18,033,26,80,72,018,39*5B


$GNGLL,3612.99307,N,13614.27188,E,042855.00,A,A*7E


$GNRMC,042856.00,A,3612.99323,N,13614.27168,E,1.000,12.77,081123,,,A*49


$GNVTG,12.77,T,,M,1.000,N,1.852,K,A*1F


$GNGGA,042856.00,3612.99323,N,13614.27168,E,1,12,1.02,16.7,M,34.3,M,,*74


$GNGSA,A,3,10,12,25,32,24,196,194,,,,,,1.94,1.02,1.65*11


$GNGSA,A,3,70,80,71,69,79,,,,,,,,1.94,1.02,1.65*19


$GPGSV,3,1,12,10,60,268,48,12,60,089,44,15,21,117,45,19,00,041,*77


$GPGSV,3,2,12,21,00,312,,23,49,195,,24,33,057,34,25,55,173,25*7F


$GPGSV,3,3,12,28,18,258,18,32,38,312,42,194,50,162,34,196,68,190,19*78


$GLGSV,2,1,07,69,32,129,42,70,75,004,31,71,25,327,36,73,46,223,23*66


$GLGSV,2,2,07,74,03,217,,79,18,033,26,80,72,018,44*51


$GNGLL,3612.99323,N,13614.27168,E,042856.00,A,A*75


$GNRMC,042857.00,A,3612.99319,N,13614.27182,E,1.604,40.75,081123,,,A*42


$GNVTG,40.75,T,,M,1.604,N,2.970,K,A*1A


$GNGGA,042857.00,3612.99319,N,13614.27182,E,1,12,1.02,16.7,M,34.3,M,,*78


$GNGSA,A,3,10,12,25,32,24,196,194,,,,,,1.94,1.02,1.65*11


$GNGSA,A,3,70,80,71,69,79,,,,,,,,1.94,1.02,1.65*19


$GPGSV,3,1,12,10,60,268,48,12,60,089,41,15,21,117,40,19,00,041,*77


$GPGSV,3,2,12,21,00,312,,23,49,195,21,24,33,057,37,25,55,173,34*7F


$GPGSV,3,3,12,28,18,258,18,32,38,312,48,194,50,162,39,196,68,190,22*77


$GLGSV,2,1,07,69,32,129,40,70,75,004,35,71,25,327,43,73,46,223,30*60


$GLGSV,2,2,07,74,03,217,,79,18,033,27,80,72,018,45*51


$GNGLL,3612.99319,N,13614.27182,E,042857.00,A,A*79


$GNRMC,042858.00,A,3612.99283,N,13614.27193,E,1.541,76.64,081123,,,A*48


$GNVTG,76.64,T,,M,1.541,N,2.853,K,A*1D


$GNGGA,042858.00,3612.99283,N,13614.27193,E,1,12,1.02,16.1,M,34.3,M,,*73


$GNGSA,A,3,10,12,25,32,24,196,194,,,,,,1.94,1.02,1.65*11


$GNGSA,A,3,70,80,71,69,79,,,,,,,,1.94,1.02,1.65*19


$GPGSV,3,1,12,10,60,268,41,12,60,089,42,15,21,117,38,19,00,041,*72


$GPGSV,3,2,12,21,00,312,,23,49,195,,24,33,057,42,25,55,173,43*7E


$GPGSV,3,3,12,28,18,258,17,32,38,312,43,194,50,162,39,196,68,190,30*70


$GLGSV,2,1,07,69,32,129,36,70,75,004,31,71,25,327,36,73,46,223,25*63


$GLGSV,2,2,07,74,03,217,,79,18,033,29,80,72,018,43*59


$GNGLL,3612.99283,N,13614.27193,E,042858.00,A,A*74


$GNRMC,042859.00,A,3612.99214,N,13614.27203,E,2.201,144.99,081123,,,A*7F


$GNVTG,144.99,T,,M,2.201,N,4.076,K,A*26


$GNGGA,042859.00,3612.99214,N,13614.27203,E,1,12,1.02,15.8,M,34.3,M,,*7C


$GNGSA,A,3,10,12,25,32,24,196,194,,,,,,1.94,1.02,1.65*11


$GNGSA,A,3,70,80,71,69,79,,,,,,,,1.94,1.02,1.65*19


$GPGSV,3,1,12,10,60,268,36,12,60,089,45,15,21,117,38,19,00,041,*75


$GPGSV,3,2,12,21,00,312,,23,49,195,26,24,33,057,35,25,55,173,41*78


$GPGSV,3,3,12,28,18,258,17,32,38,312,42,194,50,162,36,196,68,190,33*7D


$GLGSV,2,1,07,69,32,129,43,70,75,004,26,71,25,327,33,73,46,223,23*64


$GLGSV,2,2,07,74,03,217,,79,18,033,28,80,72,018,43*58


$GNGLL,3612.99214,N,13614.27203,E,042859.00,A,A*71


$GNRMC,042900.00,A,3612.99158,N,13614.27205,E,2.156,164.56,081123,,,A*7F


$GNVTG,164.56,T,,M,2.156,N,3.994,K,A*24


$GNGGA,042900.00,3612.99158,N,13614.27205,E,1,12,0.94,15.6,M,34.3,M,,*7C


$GNGSA,A,3,10,12,25,23,32,24,196,194,,,,,1.86,0.94,1.60*18


$GNGSA,A,3,70,80,71,69,79,,,,,,,,1.86,0.94,1.60*11


$GPGSV,3,1,12,10,60,268,19,12,60,089,47,15,21,117,28,19,00,041,*7B


$GPGSV,3,2,12,21,00,312,,23,49,195,26,24,33,057,44,25,55,173,42*7D


$GPGSV,3,3,12,28,18,258,18,32,38,312,38,194,50,162,43,196,68,190,30*7E


$GLGSV,2,1,07,69,32,129,44,70,75,004,33,71,25,327,30,73,46,223,22*65


$GLGSV,2,2,07,74,03,217,,79,18,033,29,80,72,018,45*5F


$GNGLL,3612.99158,N,13614.27205,E,042900.00,A,A*71


$GNRMC,042901.00,A,3612.99102,N,13614.27219,E,2.590,170.06,081123,,,A*72


$GNVTG,170.06,T,,M,2.590,N,4.798,K,A*2F


$GNGGA,042901.00,3612.99102,N,13614.27219,E,1,12,0.94,16.0,M,34.3,M,,*7A


$GNGSA,A,3,10,12,25,23,32,24,196,194,,,,,1.86,0.94,1.60*18


$GNGSA,A,3,70,80,71,69,79,,,,,,,,1.86,0.94,1.60*11


$GPGSV,3,1,12,10,60,268,18,12,60,089,47,15,21,117,33,19,00,041,*70


$GPGSV,3,2,12,21,00,312,,23,49,195,26,24,33,057,41,25,55,173,41*7B


$GPGSV,3,3,12,28,18,258,18,32,38,312,20,194,50,162,42,196,68,190,30*76


$GLGSV,2,1,07,69,32,129,43,70,75,004,27,71,25,327,29,73,46,223,19*67


$GLGSV,2,2,07,74,03,217,,79,18,033,42,80,72,018,44*53


$GNGLL,3612.99102,N,13614.27219,E,042901.00,A,A*72


$GNRMC,042902.00,A,3612.99042,N,13614.27201,E,2.002,182.02,081123,,,A*7A


$GNVTG,182.02,T,,M,2.002,N,3.708,K,A*26


$GNGGA,042902.00,3612.99042,N,13614.27201,E,1,12,0.98,15.7,M,34.3,M,,*7D


$GNGSA,A,3,10,12,25,23,32,24,196,194,,,,,1.88,0.98,1.61*1B


$GNGSA,A,3,70,80,71,69,79,,,,,,,,1.88,0.98,1.61*12


$GPGSV,3,1,12,10,60,268,18,12,60,089,46,15,21,117,34,19,00,041,*76


$GPGSV,3,2,12,21,00,312,,23,49,195,40,24,33,057,42,25,55,173,42*7B


$GPGSV,3,3,12,28,18,258,18,32,38,312,21,194,50,162,39,196,68,190,38*73


$GLGSV,2,1,07,69,32,129,43,70,75,004,26,71,25,327,28,73,46,223,21*6C


$GLGSV,2,2,07,74,03,217,,79,18,033,37,80,72,018,44*51


$GNGLL,3612.99042,N,13614.27201,E,042902.00,A,A*7D


$GNRMC,042903.00,A,3612.98982,N,13614.27217,E,2.386,173.84,081123,,,A*77


$GNVTG,173.84,T,,M,2.386,N,4.419,K,A*2D


$GNGGA,042903.00,3612.98982,N,13614.27217,E,1,12,0.98,15.8,M,34.3,M,,*70


$GNGSA,A,3,10,12,25,23,32,24,196,194,,,,,1.88,0.98,1.61*1B


$GNGSA,A,3,70,80,71,69,79,,,,,,,,1.88,0.98,1.61*12


$GPGSV,3,1,12,10,60,268,21,12,60,089,37,15,21,117,25,19,00,041,*7A


$GPGSV,3,2,12,21,00,312,,23,49,195,40,24,33,057,42,25,55,173,41*78


$GPGSV,3,3,12,28,18,258,18,32,38,312,21,194,50,162,42,196,68,190,37*70


$GLGSV,2,1,07,69,32,129,38,70,75,004,24,71,25,327,27,73,46,223,23*6F


$GLGSV,2,2,07,74,03,217,,79,18,033,45,80,72,018,42*52


$GNGLL,3612.98982,N,13614.27217,E,042903.00,A,A*7F


$GNRMC,042904.00,A,3612.98934,N,13614.27264,E,2.130,138.89,081123,,,A*74


$GNVTG,138.89,T,,M,2.130,N,3.946,K,A*20


$GNGGA,042904.00,3612.98934,N,13614.27264,E,1,12,0.94,15.7,M,34.3,M,,*7D


$GNGSA,A,3,10,12,25,23,32,24,196,194,,,,,1.86,0.94,1.60*18


$GNGSA,A,3,70,80,71,69,79,,,,,,,,1.86,0.94,1.60*11


$GPGSV,3,1,12,10,60,268,29,12,60,089,46,15,21,117,,19,00,041,*73


$GPGSV,3,2,12,21,00,312,,23,49,195,39,24,33,057,35,25,55,173,44*73


$GPGSV,3,3,12,28,18,258,,32,38,312,20,194,50,162,42,196,68,190,39*76


$GLGSV,2,1,07,69,32,129,42,70,75,004,26,71,25,327,25,73,46,223,26*67


$GLGSV,2,2,07,74,03,217,,79,18,033,39,80,72,018,44*5F


$GNGLL,3612.98934,N,13614.27264,E,042904.00,A,A*71


$GNRMC,042905.00,A,3612.98898,N,13614.27318,E,2.204,127.54,081123,,,A*72


$GNVTG,127.54,T,,M,2.204,N,4.081,K,A*2F


$GNGGA,042905.00,3612.98898,N,13614.27318,E,1,12,1.01,15.7,M,34.3,M,,*7C


$GNGSA,A,3,10,12,25,23,24,196,194,,,,,,1.91,1.01,1.62*10


$GNGSA,A,3,70,80,71,69,79,,,,,,,,1.91,1.01,1.62*18


$GPGSV,3,1,12,10,60,268,34,12,60,089,41,15,21,117,,19,00,041,*78


$GPGSV,3,2,12,21,00,312,,23,49,195,40,24,33,057,38,25,55,173,43*77


$GPGSV,3,3,12,28,18,258,,32,38,312,,194,50,162,41,196,68,190,41*78


$GLGSV,2,1,07,69,32,129,33,70,75,004,26,71,25,327,25,73,46,223,37*61


$GLGSV,2,2,07,74,03,217,,79,18,033,40,80,72,018,40*55


$GNGLL,3612.98898,N,13614.27318,E,042905.00,A,A*7D


$GNRMC,042906.00,A,3612.98861,N,13614.27381,E,2.221,122.96,081123,,,A*7B


$GNVTG,122.96,T,,M,2.221,N,4.113,K,A*29


$GNGGA,042906.00,3612.98861,N,13614.27381,E,1,12,0.94,16.3,M,34.3,M,,*73


$GNGSA,A,3,10,12,25,23,32,24,196,194,,,,,1.86,0.94,1.60*18


$GNGSA,A,3,70,80,71,69,79,,,,,,,,1.86,0.94,1.60*11


$GPGSV,3,1,12,10,60,268,44,12,60,089,43,15,21,117,,19,00,041,*7D


$GPGSV,3,2,12,21,00,312,,23,49,195,38,24,33,057,36,25,55,173,41*74


$GPGSV,3,3,12,28,18,258,26,32,38,312,34,194,50,162,41,196,68,190,39*74


$GLGSV,2,1,07,69,32,129,37,70,75,004,34,71,25,327,37,73,46,223,36*64


$GLGSV,2,2,07,74,03,217,,79,18,033,46,80,72,018,44*57


$GNGLL,3612.98861,N,13614.27381,E,042906.00,A,A*78


$GNRMC,042907.00,A,3612.98845,N,13614.27425,E,1.343,121.33,081123,,,A*7F


$GNVTG,121.33,T,,M,1.343,N,2.487,K,A*2D


$GNGGA,042907.00,3612.98845,N,13614.27425,E,1,12,1.01,16.6,M,34.3,M,,*75


$GNGSA,A,3,10,12,25,23,24,196,194,,,,,,1.91,1.01,1.62*10


$GNGSA,A,3,70,80,71,69,79,,,,,,,,1.91,1.01,1.62*18


$GPGSV,3,1,12,10,60,268,43,12,60,089,42,15,21,117,25,19,00,041,*7C


$GPGSV,3,2,12,21,00,312,,23,49,195,40,24,33,057,33,25,55,173,41*7E


$GPGSV,3,3,12,28,18,258,26,32,38,312,26,194,50,162,39,196,68,190,43*75


$GLGSV,2,1,07,69,32,129,35,70,75,004,32,71,25,327,30,73,46,223,36*67


$GLGSV,2,2,07,74,03,217,,79,18,033,40,80,72,018,42*57


$GNGLL,3612.98845,N,13614.27425,E,042907.00,A,A*76


$GNRMC,042908.00,A,3612.98829,N,13614.27456,E,1.114,123.27,081123,,,A*79


$GNVTG,123.27,T,,M,1.114,N,2.063,K,A*24


$GNGGA,042908.00,3612.98829,N,13614.27456,E,1,12,0.94,16.9,M,34.3,M,,*76


$GNGSA,A,3,10,12,25,23,32,24,196,194,,,,,1.86,0.94,1.60*18


$GNGSA,A,3,70,80,71,69,79,,,,,,,,1.86,0.94,1.60*11


$GPGSV,3,1,12,10,60,268,42,12,60,089,40,15,21,117,25,19,00,041,*7F


$GPGSV,3,2,12,21,00,312,,23,49,195,38,24,33,057,34,25,55,173,42*75


$GPGSV,3,3,12,28,18,258,24,32,38,312,27,194,50,162,41,196,68,190,42*78


$GLGSV,2,1,07,69,32,129,34,70,75,004,30,71,25,327,36,73,46,223,36*62


$GLGSV,2,2,07,74,03,217,,79,18,033,38,80,72,018,40*5A


$GNGLL,3612.98829,N,13614.27456,E,042908.00,A,A*77


$GNRMC,042909.00,A,3612.98825,N,13614.27464,E,0.202,,081123,,,A*6B


$GNVTG,,T,,M,0.202,N,0.373,K,A*3A


$GNGGA,042909.00,3612.98825,N,13614.27464,E,1,12,0.94,17.1,M,34.3,M,,*73


$GNGSA,A,3,10,12,25,23,32,24,196,194,,,,,1.86,0.94,1.60*18


$GNGSA,A,3,70,80,71,69,79,,,,,,,,1.86,0.94,1.60*11


$GPGSV,3,1,12,10,60,268,40,12,60,089,47,15,21,117,33,19,00,041,*7D


$GPGSV,3,2,12,21,00,312,,23,49,195,44,24,33,057,41,25,55,173,40*7E


$GPGSV,3,3,12,28,18,258,22,32,39,312,33,194,50,162,41,196,68,190,45*7D


$GLGSV,2,1,07,69,32,129,44,70,75,004,29,71,25,327,31,73,46,223,43*68


$GLGSV,2,2,07,74,03,217,,79,18,033,35,80,72,018,42*55


$GNGLL,3612.98825,N,13614.27464,E,042909.00,A,A*7B


$GNRMC,042910.00,A,3612.98824,N,13614.27461,E,0.074,,081123,,,A*64


$GNVTG,,T,,M,0.074,N,0.138,K,A*34


$GNGGA,042910.00,3612.98824,N,13614.27461,E,1,12,0.94,17.3,M,34.3,M,,*7D


$GNGSA,A,3,10,12,25,23,32,24,196,194,,,,,1.86,0.94,1.60*18


$GNGSA,A,3,70,80,71,69,79,,,,,,,,1.86,0.94,1.60*11


$GPGSV,3,1,12,10,60,268,42,12,60,089,49,15,21,117,34,19,00,041,*76


$GPGSV,3,2,12,21,00,312,,23,49,195,43,24,33,057,45,25,55,173,43*7E


$GPGSV,3,3,12,28,18,258,23,32,39,312,34,194,50,162,44,196,68,190,44*7F


$GLGSV,2,1,07,69,32,129,42,70,75,004,31,71,25,327,31,73,46,223,46*62


$GLGSV,2,2,07,74,03,217,,79,18,033,37,80,72,018,42*57


$GNGLL,3612.98824,N,13614.27461,E,042910.00,A,A*77


$GNRMC,042911.00,A,3612.98820,N,13614.27466,E,0.015,,081123,,,A*61


$GNVTG,,T,,M,0.015,N,0.028,K,A*33


$GNGGA,042911.00,3612.98820,N,13614.27466,E,1,12,0.94,17.3,M,34.3,M,,*7F


$GNGSA,A,3,10,12,25,23,32,24,196,194,,,,,1.86,0.94,1.60*18


$GNGSA,A,3,70,80,71,69,79,,,,,,,,1.86,0.94,1.60*11


$GPGSV,3,1,12,10,60,268,37,12,60,089,44,15,21,117,36,19,00,041,*7B


$GPGSV,3,2,12,21,00,312,,23,49,195,41,24,33,057,43,25,55,173,39*77


$GPGSV,3,3,12,28,18,258,23,32,39,312,34,194,50,162,41,196,68,190,42*7C


$GLGSV,2,1,07,69,32,129,41,70,75,004,29,71,25,327,30,73,46,223,41*6E


$GLGSV,2,2,07,74,03,217,,79,18,033,33,80,72,018,40*51


$GNGLL,3612.98820,N,13614.27466,E,042911.00,A,A*75


$GNRMC,042912.00,A,3612.98815,N,13614.27469,E,0.024,,081123,,,A*69


$GNVTG,,T,,M,0.024,N,0.044,K,A*3B


$GNGGA,042912.00,3612.98815,N,13614.27469,E,1,12,0.94,17.2,M,34.3,M,,*74


$GNGSA,A,3,10,12,25,23,32,24,196,194,,,,,1.86,0.94,1.60*18


$GNGSA,A,3,70,80,71,69,79,,,,,,,,1.86,0.94,1.60*11


$GPGSV,3,1,12,10,60,268,25,12,60,089,44,15,21,117,31,19,00,041,*7F


$GPGSV,3,2,12,21,00,312,,23,49,195,43,24,33,057,42,25,55,173,42*78


$GPGSV,3,3,12,28,18,258,25,32,39,312,32,194,50,162,41,196,68,190,43*7D


$GLGSV,2,1,07,69,32,129,44,70,75,004,29,71,25,327,31,73,46,223,43*68


$GLGSV,2,2,07,74,03,217,,79,18,033,33,80,72,018,38*5E


$GNGLL,3612.98815,N,13614.27469,E,042912.00,A,A*7F


$GNRMC,042913.00,A,3612.98810,N,13614.27468,E,0.024,,081123,,,A*6C


$GNVTG,,T,,M,0.024,N,0.045,K,A*3A


$GNGGA,042913.00,3612.98810,N,13614.27468,E,1,12,0.94,17.2,M,34.3,M,,*71


$GNGSA,A,3,10,12,25,23,32,24,196,194,,,,,1.86,0.94,1.60*18


$GNGSA,A,3,70,80,71,69,79,,,,,,,,1.86,0.94,1.60*11


$GPGSV,3,1,12,10,60,268,25,12,60,089,42,15,21,117,33,19,00,041,*7B


$GPGSV,3,2,12,21,00,312,,23,49,195,43,24,33,057,41,25,55,173,39*77


$GPGSV,3,3,12,28,18,258,26,32,39,312,31,194,50,162,41,196,68,190,40*7E


$GLGSV,2,1,07,69,32,129,38,70,75,004,29,71,25,327,30,73,46,223,42*63


$GLGSV,2,2,07,74,03,217,,79,18,033,33,80,72,018,37*51


$GNGLL,3612.98810,N,13614.27468,E,042913.00,A,A*7A


$GNRMC,042914.00,A,3612.98807,N,13614.27467,E,0.055,,081123,,,A*64


$GNVTG,,T,,M,0.055,N,0.101,K,A*3D


$GNGGA,042914.00,3612.98807,N,13614.27467,E,1,12,0.94,17.1,M,34.3,M,,*7C


$GNGSA,A,3,10,12,25,23,32,24,196,194,,,,,1.86,0.94,1.60*18


$GNGSA,A,3,70,80,71,69,79,,,,,,,,1.86,0.94,1.60*11


$GPGSV,3,1,12,10,60,268,26,12,60,089,43,15,21,117,33,19,00,041,*79


$GPGSV,3,2,12,21,00,312,,23,49,195,45,24,33,057,41,25,55,173,42*7D


$GPGSV,3,3,12,28,18,258,27,32,39,312,31,194,50,162,44,196,68,190,42*78


$GLGSV,2,1,07,69,32,129,39,70,75,004,29,71,25,327,29,73,46,223,44*6C


$GLGSV,2,2,07,74,03,217,,79,18,033,33,80,72,018,37*51


$GNGLL,3612.98807,N,13614.27467,E,042914.00,A,A*74


$GNRMC,042915.00,A,3612.98803,N,13614.27468,E,0.047,,081123,,,A*6D


$GNVTG,,T,,M,0.047,N,0.087,K,A*31


$GNGGA,042915.00,3612.98803,N,13614.27468,E,1,12,0.94,17.1,M,34.3,M,,*76


$GNGSA,A,3,10,12,25,23,32,24,196,194,,,,,1.86,0.94,1.60*18


$GNGSA,A,3,70,80,71,69,79,,,,,,,,1.86,0.94,1.60*11


$GPGSV,3,1,12,10,60,268,29,12,60,089,43,15,21,117,33,19,00,041,*76


$GPGSV,3,2,12,21,00,312,,23,49,195,44,24,33,057,41,25,55,173,42*7C


$GPGSV,3,3,12,28,18,258,29,32,39,312,31,194,50,162,43,196,68,190,43*70


$GLGSV,2,1,07,69,32,129,42,70,75,004,28,71,25,327,30,73,46,223,42*6F


$GLGSV,2,2,07,74,03,217,,79,18,033,33,80,72,018,35*53


$GNGLL,3612.98803,N,13614.27468,E,042915.00,A,A*7E


$GNRMC,042916.00,A,3612.98799,N,13614.27470,E,0.023,,081123,,,A*69


$GNVTG,,T,,M,0.023,N,0.042,K,A*3A


$GNGGA,042916.00,3612.98799,N,13614.27470,E,1,12,0.94,17.0,M,34.3,M,,*71


$GNGSA,A,3,10,12,25,23,32,24,196,194,,,,,1.86,0.94,1.60*18


$GNGSA,A,3,70,80,71,69,79,,,,,,,,1.86,0.94,1.60*11


$GPGSV,3,1,12,10,60,268,30,12,60,089,43,15,21,117,34,19,00,041,*79


$GPGSV,3,2,12,21,00,312,,23,49,195,44,24,33,057,41,25,55,173,41*7F


$GPGSV,3,3,12,28,18,258,30,32,39,312,31,194,50,162,43,196,68,190,45*7E


$GLGSV,2,1,07,69,32,129,42,70,75,004,28,71,25,327,29,73,46,223,41*64


$GLGSV,2,2,07,74,03,217,,79,18,033,33,80,72,018,36*50


$GNGLL,3612.98799,N,13614.27470,E,042916.00,A,A*78


$GNRMC,042917.00,A,3612.98797,N,13614.27471,E,0.076,,081123,,,A*67


$GNVTG,,T,,M,0.076,N,0.141,K,A*38


$GNGGA,042917.00,3612.98797,N,13614.27471,E,1,12,0.94,17.0,M,34.3,M,,*7F


$GNGSA,A,3,10,12,25,23,32,24,196,194,,,,,1.86,0.94,1.60*18


$GNGSA,A,3,70,80,71,69,79,,,,,,,,1.86,0.94,1.60*11


$GPGSV,3,1,12,10,60,268,31,12,60,089,41,15,21,117,33,19,00,041,*7D


$GPGSV,3,2,12,21,00,312,,23,49,195,42,24,33,057,41,25,55,173,41*79


$GPGSV,3,3,12,28,18,258,30,32,39,312,31,194,50,162,42,196,68,190,42*78


$GLGSV,2,1,07,69,32,129,43,70,75,004,28,71,25,327,28,73,46,223,38*6A


$GLGSV,2,2,07,74,03,217,,79,18,033,34,80,72,018,36*57


$GNGLL,3612.98797,N,13614.27471,E,042917.00,A,A*76


$GNRMC,042918.00,A,3612.98795,N,13614.27470,E,0.024,,081123,,,A*6C


$GNVTG,,T,,M,0.024,N,0.045,K,A*3A


$GNGGA,042918.00,3612.98795,N,13614.27470,E,1,12,0.94,17.0,M,34.3,M,,*73


$GNGSA,A,3,10,12,25,23,32,24,196,194,,,,,1.85,0.94,1.60*1B


$GNGSA,A,3,70,80,71,69,79,,,,,,,,1.85,0.94,1.60*12


$GPGSV,3,1,12,10,60,268,31,12,60,089,41,15,21,117,33,19,00,041,*7D


$GPGSV,3,2,12,21,00,312,,23,49,195,44,24,33,057,42,25,55,173,41*7C


$GPGSV,3,3,12,28,18,258,29,32,39,312,30,194,50,162,42,196,68,190,42*71


$GLGSV,2,1,07,69,32,129,41,70,75,004,28,71,25,327,28,73,46,223,35*65


$GLGSV,2,2,07,74,03,217,,79,18,033,34,80,72,018,36*57


$GNGLL,3612.98795,N,13614.27470,E,042918.00,A,A*7A


$GNRMC,042919.00,A,3612.98793,N,13614.27473,E,0.042,,081123,,,A*68


$GNVTG,,T,,M,0.042,N,0.078,K,A*34


$GNGGA,042919.00,3612.98793,N,13614.27473,E,1,12,0.94,17.0,M,34.3,M,,*77


$GNGSA,A,3,10,12,25,23,32,24,196,194,,,,,1.85,0.94,1.60*1B


$GNGSA,A,3,70,80,71,69,79,,,,,,,,1.85,0.94,1.60*12


$GPGSV,3,1,12,10,60,268,35,12,60,089,43,15,21,117,34,19,00,041,*7C


$GPGSV,3,2,12,21,00,312,,23,49,195,41,24,33,057,44,25,55,173,41*7F


$GPGSV,3,3,12,28,18,258,29,32,39,312,29,194,50,162,42,196,68,190,41*7A


$GLGSV,2,1,07,69,32,129,43,70,75,004,27,71,25,327,29,73,46,223,34*68


$GLGSV,2,2,07,74,03,217,,79,18,033,33,80,72,018,36*50


$GNGLL,3612.98793,N,13614.27473,E,042919.00,A,A*7E


$GNRMC,042920.00,A,3612.98790,N,13614.27479,E,0.035,,081123,,,A*6B


$GNVTG,,T,,M,0.035,N,0.065,K,A*38


$GNGGA,042920.00,3612.98790,N,13614.27479,E,1,12,0.94,16.9,M,34.3,M,,*7C


$GNGSA,A,3,10,12,25,23,32,24,196,194,,,,,1.85,0.94,1.60*1B


$GNGSA,A,3,70,80,71,69,79,,,,,,,,1.85,0.94,1.60*12


$GPGSV,3,1,12,10,60,268,34,12,60,089,41,15,21,117,32,19,00,041,*79


$GPGSV,3,2,12,21,00,312,,23,49,195,40,24,33,057,41,25,55,173,37*7A


$GPGSV,3,3,12,28,18,258,27,32,39,312,29,194,50,162,40,196,68,190,41*76


$GLGSV,2,1,07,69,32,129,42,70,75,004,26,71,25,327,30,73,46,223,24*61


$GLGSV,2,2,07,74,03,217,,79,18,033,33,80,72,018,31*57


$GNGLL,3612.98790,N,13614.27479,E,042920.00,A,A*7D


$GNRMC,042921.00,A,3612.98788,N,13614.27477,E,0.033,,081123,,,A*6B


$GNVTG,,T,,M,0.033,N,0.060,K,A*3B


$GNGGA,042921.00,3612.98788,N,13614.27477,E,1,12,1.01,16.8,M,34.3,M,,*76


$GNGSA,A,3,10,12,25,23,32,24,196,194,,,,,1.91,1.01,1.62*11


$GNGSA,A,3,70,80,71,69,79,,,,,,,,1.91,1.01,1.62*18


$GPGSV,3,1,12,10,60,268,36,12,60,089,42,15,21,117,31,19,00,041,*7B


$GPGSV,3,2,12,21,00,312,,23,49,195,38,24,33,057,39,25,55,173,38*75


$GPGSV,3,3,12,28,18,258,26,32,39,312,27,194,50,162,38,196,68,190,43*74


$GLGSV,2,1,07,69,32,129,39,70,75,004,24,71,25,327,28,73,46,223,27*65


$GLGSV,2,2,07,74,03,217,,79,18,033,33,80,72,018,36*50


$GNGLL,3612.98788,N,13614.27477,E,042921.00,A,A*7B


$GNRMC,042922.00,A,3612.98789,N,13614.27477,E,0.025,,081123,,,A*6E


$GNVTG,,T,,M,0.025,N,0.047,K,A*39


$GNGGA,042922.00,3612.98789,N,13614.27477,E,1,12,1.01,16.8,M,34.3,M,,*74


$GNGSA,A,3,10,12,25,23,32,24,196,194,,,,,1.91,1.01,1.62*11


$GNGSA,A,3,70,80,71,69,79,,,,,,,,1.91,1.01,1.62*18


$GPGSV,3,1,12,10,60,268,39,12,60,089,44,15,21,117,31,19,00,041,*72


$GPGSV,3,2,12,21,00,312,,23,49,195,42,24,33,057,40,25,55,173,39*77


$GPGSV,3,3,12,28,18,258,26,32,39,312,24,194,50,162,40,196,68,190,45*7E


$GLGSV,2,1,07,69,32,129,41,70,75,004,25,71,25,327,28,73,46,223,41*6B


$GLGSV,2,2,07,74,03,217,,79,18,033,32,80,72,018,38*5F


$GNGLL,3612.98789,N,13614.27477,E,042922.00,A,A*79


$GNRMC,042923.00,A,3612.98790,N,13614.27478,E,0.037,,081123,,,A*6B


$GNVTG,,T,,M,0.037,N,0.068,K,A*37


$GNGGA,042923.00,3612.98790,N,13614.27478,E,1,12,1.01,16.8,M,34.3,M,,*72


$GNGSA,A,3,10,12,25,23,32,24,196,194,,,,,1.91,1.01,1.62*11


$GNGSA,A,3,70,80,71,69,79,,,,,,,,1.91,1.01,1.62*18


$GPGSV,3,1,12,10,60,268,38,12,60,089,44,15,21,117,31,19,00,041,*73


$GPGSV,3,2,12,21,00,312,,23,49,195,43,24,33,057,40,25,55,173,41*79


$GPGSV,3,3,12,28,18,258,28,32,39,312,22,194,50,162,41,196,68,190,45*77


$GLGSV,2,1,07,69,32,129,43,70,75,004,26,71,25,327,29,73,46,223,42*68


$GLGSV,2,2,07,74,03,217,,79,18,033,37,80,72,018,39*5B


$GNGLL,3612.98790,N,13614.27478,E,042923.00,A,A*7F


$GNRMC,042924.00,A,3612.98789,N,13614.27478,E,0.014,,081123,,,A*65


$GNVTG,,T,,M,0.014,N,0.025,K,A*3F


$GNGGA,042924.00,3612.98789,N,13614.27478,E,1,12,1.01,16.9,M,34.3,M,,*7C


$GNGSA,A,3,10,12,25,23,32,24,196,194,,,,,1.91,1.01,1.62*11


$GNGSA,A,3,70,80,71,69,79,,,,,,,,1.91,1.01,1.62*18


$GPGSV,3,1,12,10,60,268,38,12,60,089,45,15,21,117,32,19,00,041,*71


$GPGSV,3,2,12,21,00,312,,23,49,195,43,24,33,057,40,25,55,173,41*79


$GPGSV,3,3,12,28,18,258,28,32,39,312,24,194,50,162,41,196,68,190,44*70


$GLGSV,2,1,07,69,32,129,44,70,75,004,26,71,25,327,30,73,46,223,42*67


$GLGSV,2,2,07,74,03,217,,79,18,033,34,80,72,018,39*58


$GNGLL,3612.98789,N,13614.27478,E,042924.00,A,A*70


$GNRMC,042925.00,A,3612.98788,N,13614.27477,E,0.028,,081123,,,A*65


$GNVTG,,T,,M,0.028,N,0.051,K,A*33


$GNGGA,042925.00,3612.98788,N,13614.27477,E,1,12,1.01,16.8,M,34.3,M,,*72


$GNGSA,A,3,10,12,25,23,32,24,196,194,,,,,1.91,1.01,1.62*11


$GNGSA,A,3,70,80,71,69,79,,,,,,,,1.91,1.01,1.62*18


$GPGSV,3,1,12,10,60,268,37,12,60,089,44,15,21,117,31,19,00,041,*7C


$GPGSV,3,2,12,21,00,312,,23,49,195,42,24,33,057,39,25,55,173,40*77


$GPGSV,3,3,12,28,18,258,27,32,39,312,23,194,50,162,39,196,68,190,44*77


$GLGSV,2,1,07,69,32,129,43,70,75,004,27,71,25,327,29,73,46,223,41*6A


$GLGSV,2,2,07,74,03,217,,79,18,033,33,80,72,018,38*5E


$GNGLL,3612.98788,N,13614.27477,E,042925.00,A,A*7F


$GNRMC,042926.00,A,3612.98788,N,13614.27476,E,0.085,,081123,,,A*60


$GNVTG,,T,,M,0.085,N,0.157,K,A*33


$GNGGA,042926.00,3612.98788,N,13614.27476,E,1,12,1.01,16.8,M,34.3,M,,*70


$GNGSA,A,3,10,12,25,23,32,24,196,194,,,,,1.91,1.01,1.62*11


$GNGSA,A,3,70,80,71,69,79,,,,,,,,1.91,1.01,1.62*18


$GPGSV,3,1,12,10,60,268,37,12,60,089,45,15,21,117,31,19,00,041,*7D


$GPGSV,3,2,12,21,00,312,,23,49,195,42,24,33,057,36,25,55,173,40*78


$GPGSV,3,3,12,28,18,258,26,32,39,312,23,194,50,162,38,196,68,190,43*70


$GLGSV,2,1,07,69,32,129,44,70,75,004,28,71,25,327,29,73,46,223,42*61


$GLGSV,2,2,07,74,03,217,,79,18,033,33,80,72,018,38*5E


$GNGLL,3612.98788,N,13614.27476,E,042926.00,A,A*7D


$GNRMC,042927.00,A,3612.98790,N,13614.27478,E,0.069,,081123,,,A*64


$GNVTG,,T,,M,0.069,N,0.127,K,A*36


$GNGGA,042927.00,3612.98790,N,13614.27478,E,1,12,1.01,16.8,M,34.3,M,,*76


$GNGSA,A,3,10,12,25,23,24,196,194,,,,,,1.91,1.01,1.62*10


$GNGSA,A,3,70,80,71,69,79,,,,,,,,1.91,1.01,1.62*18


$GPGSV,4,1,13,10,60,268,37,12,60,089,47,15,21,117,32,19,00,041,*7A


$GPGSV,4,2,13,21,00,312,,23,49,195,46,24,33,057,44,25,55,173,43*7C


$GPGSV,4,3,13,28,18,258,25,32,39,312,30,50,47,165,40,194,50,162,45*42


$GPGSV,4,4,13,196,68,190,45*72


$GLGSV,2,1,07,69,32,129,45,70,75,004,28,71,25,327,30,73,46,223,46*6C


$GLGSV,2,2,07,74,03,217,,79,18,033,36,80,72,018,41*55


$GNGLL,3612.98790,N,13614.27478,E,042927.00,A,A*7B


$GNRMC,042928.00,A,3612.98789,N,13614.27482,E,0.059,,081123,,,A*65


$GNVTG,,T,,M,0.059,N,0.109,K,A*39


$GNGGA,042928.00,3612.98789,N,13614.27482,E,1,12,0.94,17.0,M,34.3,M,,*70


$GNGSA,A,3,10,12,25,23,32,24,196,194,,,,,1.85,0.94,1.60*1B


$GNGSA,A,3,70,80,71,69,79,,,,,,,,1.85,0.94,1.60*12


$GPGSV,4,1,13,10,60,268,37,12,60,089,47,15,21,117,34,19,00,041,*7C


$GPGSV,4,2,13,21,00,312,25,23,49,195,44,24,33,057,44,25,55,173,45*7F


$GPGSV,4,3,13,28,18,258,24,32,39,312,30,50,47,165,40,194,50,162,46*40


$GPGSV,4,4,13,196,68,190,44*73


$GLGSV,2,1,07,69,32,129,43,70,75,004,29,71,25,327,33,73,46,223,45*6B


$GLGSV,2,2,07,74,03,217,,79,18,033,32,80,72,018,40*50


$GNGLL,3612.98789,N,13614.27482,E,042928.00,A,A*79


$GNRMC,042929.00,A,3612.98787,N,13614.27485,E,0.060,,081123,,,A*67


$GNVTG,,T,,M,0.060,N,0.111,K,A*3A


$GNGGA,042929.00,3612.98787,N,13614.27485,E,1,12,1.01,17.2,M,34.3,M,,*77


$GNGSA,A,3,10,12,25,23,32,24,196,194,,,,,1.91,1.01,1.62*11


$GNGSA,A,3,70,80,71,69,79,,,,,,,,1.91,1.01,1.62*18


$GPGSV,4,1,13,10,60,268,36,12,60,089,46,15,21,117,34,19,00,041,*7C


$GPGSV,4,2,13,21,00,312,,23,49,195,43,24,33,057,43,25,55,173,44*79


$GPGSV,4,3,13,28,18,258,22,32,39,312,31,50,47,165,38,194,50,162,45*4B


$GPGSV,4,4,13,196,68,190,43*74


$GLGSV,2,1,07,69,32,129,44,70,75,004,30,71,25,327,33,73,46,223,41*60


$GLGSV,2,2,07,74,03,217,,79,18,033,32,80,72,018,41*51


$GNGLL,3612.98787,N,13614.27485,E,042929.00,A,A*71


$GNRMC,042930.00,A,3612.98782,N,13614.27496,E,0.027,,081123,,,A*6B


$GNVTG,,T,,M,0.027,N,0.049,K,A*35


$GNGGA,042930.00,3612.98782,N,13614.27496,E,1,12,0.94,17.5,M,34.3,M,,*72


$GNGSA,A,3,10,12,25,23,32,24,196,194,,,,,1.85,0.94,1.60*1B


$GNGSA,A,3,70,80,71,69,79,,,,,,,,1.85,0.94,1.60*12


$GPGSV,4,1,13,10,60,268,39,12,60,089,44,15,21,117,33,19,00,041,*76


$GPGSV,4,2,13,21,00,312,,23,49,195,44,24,33,057,42,25,55,173,45*7E


$GPGSV,4,3,13,28,18,258,22,32,39,312,30,50,47,165,39,194,50,162,46*48


$GPGSV,4,4,13,196,68,190,43*74


$GLGSV,2,1,07,69,32,129,46,70,75,004,30,71,25,327,34,73,46,223,40*64


$GLGSV,2,2,07,74,03,217,,79,18,033,33,80,72,018,41*50


$GNGLL,3612.98782,N,13614.27496,E,042930.00,A,A*7E


$GNRMC,042931.00,A,3612.98779,N,13614.27499,E,0.056,,081123,,,A*67


$GNVTG,,T,,M,0.056,N,0.104,K,A*3B


$GNGGA,042931.00,3612.98779,N,13614.27499,E,1,12,0.97,17.7,M,34.3,M,,*79


$GNGSA,A,3,10,12,25,23,32,24,15,196,194,,,,1.77,0.97,1.48*1B


$GNGSA,A,3,70,80,71,69,79,,,,,,,,1.77,0.97,1.48*16


$GPGSV,4,1,13,10,60,268,42,12,60,089,46,15,21,117,33,19,00,041,20*7A


$GPGSV,4,2,13,21,00,312,,23,49,195,44,24,33,057,43,25,55,173,45*7F


$GPGSV,4,3,13,28,18,258,,32,39,312,28,50,47,165,39,194,50,162,44*43


$GPGSV,4,4,13,196,68,190,43*74


$GLGSV,2,1,07,69,32,129,46,70,75,004,29,71,25,327,33,73,46,223,43*68


$GLGSV,2,2,07,74,03,217,,79,18,033,33,80,72,018,41*50


$GNGLL,3612.98779,N,13614.27499,E,042931.00,A,A*74


$GNRMC,042932.00,A,3612.98779,N,13614.27498,E,0.021,,081123,,,A*65


$GNVTG,,T,,M,0.021,N,0.038,K,A*35


$GNGGA,042932.00,3612.98779,N,13614.27498,E,1,12,0.90,17.9,M,34.3,M,,*72


$GNGSA,A,3,10,12,25,23,32,24,15,196,194,,,,1.70,0.90,1.44*17


$GNGSA,A,3,70,80,71,69,79,,,,,,,,1.70,0.90,1.44*1A


$GPGSV,4,1,13,10,60,268,40,12,60,089,46,15,21,117,34,19,00,041,16*7A


$GPGSV,4,2,13,21,00,312,,23,49,195,44,24,33,057,42,25,55,173,44*7F


$GPGSV,4,3,13,28,18,258,,32,39,312,25,50,47,165,38,194,50,162,43*48


$GPGSV,4,4,13,196,68,190,44*73


$GLGSV,2,1,07,69,31,129,46,70,75,004,29,71,25,327,32,73,46,223,42*6B


$GLGSV,2,2,07,74,03,217,,79,18,033,38,80,72,018,42*58


$GNGLL,3612.98779,N,13614.27498,E,042932.00,A,A*76


$GNRMC,042933.00,A,3612.98780,N,13614.27493,E,0.017,,081123,,,A*6C


$GNVTG,,T,,M,0.017,N,0.031,K,A*39


$GNGGA,042933.00,3612.98780,N,13614.27493,E,1,12,0.90,17.9,M,34.3,M,,*7E


$GNGSA,A,3,10,12,25,23,32,24,15,196,194,,,,1.70,0.90,1.44*17


$GNGSA,A,3,70,80,71,69,79,,,,,,,,1.70,0.90,1.44*1A


$GPGSV,4,1,13,10,60,268,37,12,60,089,46,15,21,117,33,19,00,041,12*79


$GPGSV,4,2,13,21,00,312,,23,49,195,43,24,33,057,42,25,55,173,44*78


$GPGSV,4,3,13,28,18,258,,32,39,312,25,50,47,165,38,194,50,162,43*48


$GPGSV,4,4,13,196,68,190,44*73


$GLGSV,2,1,07,69,31,129,45,70,75,005,30,71,25,327,32,73,46,223,42*61


$GLGSV,2,2,07,74,03,217,,79,18,033,36,80,72,018,43*57


$GNGLL,3612.98780,N,13614.27493,E,042933.00,A,A*7A


$GNRMC,042934.00,A,3612.98778,N,13614.27490,E,0.029,,081123,,,A*62


$GNVTG,,T,,M,0.029,N,0.054,K,A*37


$GNGGA,042934.00,3612.98778,N,13614.27490,E,1,12,0.90,17.9,M,34.3,M,,*7D


$GNGSA,A,3,10,12,25,23,32,24,15,196,194,,,,1.70,0.90,1.44*17


$GNGSA,A,3,70,80,71,69,79,,,,,,,,1.70,0.90,1.44*1A


$GPGSV,4,1,13,10,60,268,42,12,60,089,48,15,21,117,33,19,00,041,12*75


$GPGSV,4,2,13,21,00,312,,23,49,195,44,24,33,057,43,25,55,173,44*7E


$GPGSV,4,3,13,28,18,258,,32,39,312,24,50,47,165,38,194,50,162,43*49


$GPGSV,4,4,13,196,68,190,45*72


$GLGSV,2,1,07,69,31,129,45,70,75,005,29,71,26,327,33,73,46,223,42*6B


$GLGSV,2,2,07,74,03,217,,79,18,033,36,80,72,018,41*55


$GNGLL,3612.98778,N,13614.27490,E,042934.00,A,A*79


$GNRMC,042935.00,A,3612.98777,N,13614.27489,E,0.022,,081123,,,A*6F


$GNVTG,,T,,M,0.022,N,0.041,K,A*38


$GNGGA,042935.00,3612.98777,N,13614.27489,E,1,12,0.90,18.0,M,34.3,M,,*7D


$GNGSA,A,3,10,12,25,23,32,24,15,196,194,,,,1.70,0.90,1.44*17


$GNGSA,A,3,70,80,71,69,79,,,,,,,,1.70,0.90,1.44*1A


$GPGSV,4,1,13,10,60,268,41,12,60,089,47,15,21,117,33,19,00,041,12*79


$GPGSV,4,2,13,21,00,312,,23,49,195,43,24,33,057,43,25,55,173,45*78


$GPGSV,4,3,13,28,18,258,,32,39,312,24,50,47,165,37,194,50,162,43*46


$GPGSV,4,4,13,196,68,190,45*72


$GLGSV,2,1,07,69,31,129,45,70,75,005,29,71,26,327,35,73,46,223,42*6D


$GLGSV,2,2,07,74,03,217,,79,18,033,34,80,72,018,42*54


$GNGLL,3612.98777,N,13614.27489,E,042935.00,A,A*7F


$GNRMC,042936.00,A,3612.98776,N,13614.27490,E,0.046,,081123,,,A*67


$GNVTG,,T,,M,0.046,N,0.086,K,A*31


$GNGGA,042936.00,3612.98776,N,13614.27490,E,1,12,0.90,18.2,M,34.3,M,,*75


$GNGSA,A,3,10,12,25,23,32,24,15,196,194,,,,1.70,0.90,1.44*17


$GNGSA,A,3,70,80,71,69,79,,,,,,,,1.70,0.90,1.44*1A


$GPGSV,4,1,13,10,60,268,41,12,60,089,46,15,21,117,33,19,00,041,*7B


$GPGSV,4,2,13,21,00,312,,23,49,195,43,24,33,057,43,25,55,173,45*78


$GPGSV,4,3,13,28,18,258,25,32,39,312,30,50,47,165,40,194,50,162,43*44


$GPGSV,4,4,13,196,68,190,45*72


$GLGSV,2,1,07,69,31,129,43,70,75,005,29,71,26,327,34,73,46,223,40*68


$GLGSV,2,2,07,74,03,217,,79,18,033,33,80,72,018,43*52


$GNGLL,3612.98776,N,13614.27490,E,042936.00,A,A*75


$GNRMC,042937.00,A,3612.98776,N,13614.27486,E,0.015,,081123,,,A*67


$GNVTG,,T,,M,0.015,N,0.028,K,A*33


